date,time,lat,lon,alt,x_gyro,y_gyro,z_gyro,x_acc,y_acc,z_acc,north,east,down,pitch,yaw,roll,wind_speed,wind_direction
2020/7/14,17:02:59,22.9028655,120.2732338,0.023,7,-4,-1,-29,-24,-1003,0.448032498,-0.023088455,-0.023423791,-0.031378966,-1.783842206,0.006083048,16,262
2020/7/14,17:03:02,22.9028665,120.2732317,1.084,-2,66,133,-96,83,-1069,0.567315161,-0.240639687,-1.084822416,0.016269814,-2.104061365,-0.045707293,16,262
2020/7/14,17:03:05,22.9028661,120.2732342,7.182,18,14,16,-27,44,-959,0.512276411,0.018458366,-7.182010174,0.002662745,-1.914577484,-0.055810779,16,262
2020/7/14,17:03:08,22.9028501,120.2732327,10.001,-33,-104,-366,-127,160,-980,-0.89432466,-0.057865143,-9.936090469,-0.130662888,-3.108832836,-0.03491272,16,262
2020/7/14,17:03:11,22.9027879,120.2732226,10.368,-34,24,45,-153,-29,-1004,-8.188473701,-1.174736023,-10.36851025,-0.153108999,-3.131274223,-0.053047352,16,262
2020/7/14,17:03:14,22.9027167,120.273215,10.244,26,12,69,-134,17,-1029,-16.1138382,-1.948875427,-10.24494648,-0.115983538,-3.039879084,-0.013293024,16,262
2020/7/14,17:03:17,22.9026343,120.2732027,10.037,68,-35,6,-38,67,-945,-25.28678703,-3.216236115,-10.03722858,-0.121206395,-3.066526175,-0.063712001,16,262
2020/7/14,17:03:20,22.9025594,120.2731939,10.056,24,73,68,-64,-31,-983,-33.62164688,-4.114636421,-10.05675602,-0.126922876,-3.031599045,-0.043964371,16,262
2020/7/14,17:03:23,22.9024781,120.2731842,9.891,34,21,23,-162,33,-1047,-42.67634583,-5.107188225,-9.891060829,-0.100864612,-2.977433443,-0.016011875,16,262
2020/7/14,17:03:26,22.9024038,120.2731575,10.032,27,48,82,-36,69,-988,-50.94509125,-7.853285789,-10.03242397,-0.089621641,-2.516100645,0.018420754,16,262
2020/7/14,17:03:29,22.902343,120.2731052,10.065,-78,-28,-9,-81,92,-957,-57.70847702,-13.21268368,-10.06567001,-0.138154909,-2.483041048,-0.06419193,16,262
2020/7/14,17:03:32,22.9022794,120.2730503,10.025,4,2,-10,-65,124,-957,-64.83627319,-18.87794495,-10.02669907,-0.110574573,-2.443444014,-0.073494047,16,262
2020/7/14,17:03:35,22.9022192,120.2729954,10.04,14,-21,63,-103,63,-963,-71.48981476,-24.46842957,-10.04016113,-0.125699371,-2.448075294,-0.078256659,16,262
2020/7/14,17:03:38,22.9021775,120.272948,10.229,-24,104,445,40,74,-989,-76.13671875,-29.32780075,-10.22989082,-0.135001972,-1.049581885,0.051540956,16,262
2020/7/14,17:03:41,22.9022137,120.2728982,10.03,56,34,62,-7,-24,-987,-72.10717773,-34.43524933,-10.03099632,-0.05427473,-0.799763978,-0.02284288,16,262
2020/7/14,17:03:44,22.9022637,120.2728402,10.123,-78,50,87,-113,133,-1012,-66.54282379,-40.38359451,-10.12381554,-0.033646222,-0.816323519,-0.043338954,16,262
2020/7/14,17:03:47,22.9023156,120.2727793,10.081,13,-50,0,-75,43,-1045,-60.76744843,-46.62758636,-10.08122158,-0.036260348,-0.812708437,-0.043642208,16,262
2020/7/14,17:03:50,22.9023714,120.2727133,10.056,-7,42,-5,-58,67,-1002,-54.55392075,-53.40077972,-10.05697918,-0.015662245,-0.79908663,-0.040482819,16,262
2020/7/14,17:03:53,22.902412,120.2726665,10.108,166,-47,71,85,-41,-1008,-50.03644562,-58.20018768,-10.10835361,0.124780901,-0.7473858,-0.007457828,16,262
2020/7/14,17:03:56,22.902416,120.2726906,10.166,-38,60,1004,-3,-14,-997,-49.58435059,-55.73034668,-10.16610813,-0.071677342,1.348231077,0.030553002,16,262
2020/7/14,17:03:59,22.9024236,120.2727641,10.265,-28,68,-41,-2,-63,-982,-48.73814392,-48.18960571,-10.26597786,-0.082641311,1.432023287,0.043235235,16,262
2020/7/14,17:04:02,22.9024312,120.2728476,10.109,-42,-72,109,-48,16,-980,-47.89556885,-39.62856293,-10.10955334,-0.0399458,1.399837852,0.056936637,16,262
2020/7/14,17:04:05,22.9024397,120.2729274,10.004,-71,-19,80,-38,5,-968,-46.95159531,-31.44765854,-10.00434685,0.079487331,1.383512855,0.058828458,16,262
2020/7/14,17:04:08,22.9024475,120.2729344,9.907,-2,-27,-1103,28,103,-1008,-46.08176041,-30.72279739,-9.907590866,-0.04128176,0.205960885,-0.095346317,16,262
2020/7/14,17:04:11,22.9024886,120.2728823,10.033,10,94,24,63,-1,-947,-41.50476456,-36.06459427,-10.03365135,-0.012740609,-0.909614027,-0.067478009,16,262
2020/7/14,17:04:14,22.9025345,120.2728178,10.108,107,2,-18,-2,42,-973,-36.39485931,-42.68019485,-10.10808277,-0.043210473,-0.84265548,-0.064353086,16,262
2020/7/14,17:04:17,22.9025881,120.2727456,10.049,-20,-36,56,-12,3,-1006,-30.42515373,-50.08256149,-10.04983234,0.003041952,-0.846012831,-0.041155934,16,262
2020/7/14,17:04:20,22.9026391,120.2726799,10.114,0,-42,-29,6,18,-984,-24.74822044,-56.82562256,-10.11418629,-0.026060931,-0.855212092,-0.041813664,16,262
2020/7/14,17:04:23,22.9026763,120.2726335,10.189,-15,-27,-30,30,127,-976,-20.60954857,-61.57878876,-10.18925858,0.125691578,-1.003042221,-0.074766383,16,262
2020/7/14,17:04:26,22.9026858,120.2726576,10.1,56,59,983,30,-74,-992,-19.55390739,-59.10853577,-10.10065365,-0.042286724,1.22458005,0.06713713,16,262
2020/7/14,17:04:29,22.9027005,120.2727318,9.999,29,4,-17,-37,-39,-977,-17.91406059,-51.49806213,-9.999658585,-0.058862049,1.207760334,0.038465247,16,262
2020/7/14,17:04:32,22.9027215,120.2728157,9.895,21,9,-45,-62,15,-1011,-15.57885075,-42.90257263,-9.895114899,-0.02173584,1.211898565,0.003698086,16,262
2020/7/14,17:04:35,22.9027458,120.2728961,10.044,78,137,9,-17,-104,-983,-12.86868286,-34.65732956,-10.04455853,-0.017840277,1.273928642,0.063043848,16,262
2020/7/14,17:04:38,22.9027646,120.2729812,9.75,149,-27,-128,-144,57,-1034,-10.78221893,-25.92968369,-9.750590324,-0.036787264,1.239736676,-0.015793502,16,262
2020/7/14,17:04:41,22.9027889,120.2730621,9.672,54,-97,32,-60,-86,-984,-8.072278023,-17.63105011,-9.672979355,-0.0681464,1.313334465,0.052028611,16,262
2020/7/14,17:04:44,22.9028029,120.2731154,9.302,-8,-100,-47,2,-13,-1011,-6.522576809,-12.1713438,-9.302859306,0.056819551,1.277473927,0.041376837,16,262
2020/7/14,17:04:47,22.9028032,120.2731194,7.512,-1,-64,-83,30,-58,-1006,-6.490831852,-11.74593067,-7.645519257,0.021472424,1.299866676,0.029042639,16,262
2020/7/14,17:04:50,22.9028031,120.2731205,6.075,119,-97,-40,72,-115,-1001,-6.49552536,-11.64450741,-6.075971603,0.035425432,1.291739345,0.002054346,16,262
2020/7/14,17:04:53,22.9028033,120.2731189,4.597,-151,76,-153,-9,13,-962,-6.472876072,-11.80457783,-4.597148895,-0.01861681,1.26971221,0.014508648,16,262
2020/7/14,17:04:56,22.9028051,120.2731219,3.225,-84,38,-4,142,-89,-956,-6.272002697,-11.49971485,-3.225747108,0.033251669,1.295128822,0.038402475,16,262
2020/7/14,17:04:59,22.902803,120.2731194,1.828,-5,8,-59,-138,37,-1052,-6.501850128,-11.75442982,-1.828122854,-0.007568439,1.248734593,0.025858071,16,262
2020/7/14,17:05:02,22.9028036,120.2731208,0.186,-125,18,-195,106,-12,-614,-6.444812298,-11.60821438,-0.186470628,0.057417061,1.263643265,0.011332203,16,262
