date,time,lat,lon,alt,x_gyro,y_gyro,z_gyro,x_acc,y_acc,z_acc,north,east,down,pitch,yaw,roll,wind_speed,wind_direction
2020-06-16,12:05:07,22.9028306,120.2731688,0.065,65,85,11,-9,5,-1015,0.0587158203125,-0.15774917602539062,-0.0650949478149414,-0.025261584669351578,-1.9863839149475098,0.030482731759548187,0,0
2020-06-16,12:05:10,22.9028623,120.2731464,3.023,157,-53,110,-85,120,-1028,3.589935779571533,-2.4537582397460938,-3.023630380630493,-0.18932943046092987,-1.0344594717025757,-0.0747050940990448,0,0
2020-06-16,12:05:13,22.9029189,120.2730695,8.672,-42,7,42,-111,125,-960,9.885680198669434,-10.345115661621094,-8.672290802001953,-0.12240519374608994,-0.8348938822746277,-0.06145339086651802,0,0
2020-06-16,12:05:16,22.9029814,120.2729887,13.932,-83,23,-102,-82,47,-978,16.853857040405273,-18.63152313232422,-13.93229866027832,-0.1201685220003128,-0.7602816820144653,-0.042613156139850616,0,0
2020-06-16,12:05:19,22.9030464,120.2729107,19.041,19,249,42,-86,98,-844,24.098459243774414,-26.620243072509766,-19.041362762451172,-0.06613536179065704,-0.7331826090812683,-0.0696074590086937,0,0
2020-06-16,12:05:22,22.9030817,120.2728695,20.579,51,-66,19,-7,40,-968,28.027202606201172,-30.850574493408203,-20.579282760620117,0.09460055828094482,-0.6178788542747498,-0.06875038146972656,0,0
2020-06-16,12:05:25,22.9030508,120.2728488,20.28,197,103,-1296,-85,30,-1063,24.58289337158203,-32.975711822509766,-20.28075408935547,-0.027101412415504456,-1.2132879495620728,-0.11203031241893768,0,0
2020-06-16,12:05:28,22.9029747,120.2727942,20.243,90,-12,36,-63,-8,-958,16.108688354492188,-38.56983947753906,-20.24378776550293,-0.17328821122646332,-2.558885335922241,0.03365105390548706,0,0
2020-06-16,12:05:31,22.9028838,120.2727296,20.213,0,-9,19,-115,7,-968,5.91160774230957,-45.24712371826172,-20.218786239624023,-0.1542920172214508,-2.552609920501709,0.036049675196409225,0,0
2020-06-16,12:05:34,22.9027767,120.2726628,20.25,-174,-83,-436,-104,-31,-1003,-5.9418535232543945,-52.04206848144531,-20.250144958496094,-0.05926288664340973,-2.815382957458496,-0.1154240146279335,0,0
2020-06-16,12:05:37,22.9026737,120.2726992,19.738,22,89,-113,-154,-120,-1036,-17.401443481445312,-48.318023681640625,-19.738805770874023,-0.11604480445384979,2.627912998199463,0.08498094975948334,0,0
2020-06-16,12:05:40,22.9025814,120.2727648,20.08,-8,23,-81,-93,-85,-1022,-27.679351806640625,-41.58284378051758,-20.08021354675293,-0.13984978199005127,2.503150463104248,0.08163683116436005,0,0
2020-06-16,12:05:43,22.9025204,120.2728661,20.226,47,-19,-204,19,-99,-986,-34.467308044433594,-31.198291778564453,-20.22660255432129,0.00410613976418972,1.722831130027771,0.0038205005694180727,0,0
2020-06-16,12:05:46,22.9025206,120.2729854,20.204,-118,57,-10,9,30,-1007,-34.441646575927734,-18.875293731689453,-20.204425811767578,0.012057866901159286,1.54363214969635,0.06322567909955978,0,0
2020-06-16,12:05:49,22.9025489,120.2730964,20.191,8,44,-556,87,71,-979,-31.302467346191406,-7.584083557128906,-20.19120216369629,0.012535998597741127,0.6106669306755066,-0.18731363117694855,0,0
2020-06-16,12:05:52,22.9026468,120.2731382,20.198,-15,-74,34,-40,178,-1002,-20.395835876464844,-3.2965431213378906,-20.19869613647461,-0.019170457497239113,0.22058212757110596,-0.10859184712171555,0,0
2020-06-16,12:05:55,22.9027544,120.2731581,20.022,-3,-167,71,-102,165,-941,-8.417471885681152,-1.2512168884277344,-20.022493362426758,0.02889886498451233,0.26761969923973083,-0.1052773967385292,0,0
2020-06-16,12:05:58,22.9028316,120.2731743,19.547,198,118,93,47,13,-1035,0.16891193389892578,0.40239906311035156,-19.54700469970703,0.0060176365077495575,0.6344268321990967,0.04222019016742706,0,0
2020-06-16,12:06:01,22.9028419,120.2731823,16.933,-128,-105,-13,98,84,-992,1.3243122100830078,1.228409767150879,-16.933664321899414,0.08941993117332458,0.6077011823654175,0.000996353104710579,0,0
2020-06-16,12:06:04,22.9028424,120.2731827,12.082,12,-48,-34,84,45,-1036,1.3325681686401367,1.288400650024414,-12.470382690429688,0.0794505849480629,0.6222773194313049,-0.01019617635756731,0,0
2020-06-16,12:06:07,22.9028421,120.2731824,9.283,-84,57,12,51,93,-984,1.338231086730957,1.235051155090332,-9.283744812011719,0.028294209390878677,0.5972205400466919,-0.04286515340209007,0,0
2020-06-16,12:06:10,22.9028431,120.273181,7.876,-77,107,17,28,-3,-963,1.4540071487426758,1.0904312133789062,-7.876223087310791,0.025311041623353958,0.614107072353363,-0.001737845130264759,0,0
2020-06-16,12:06:13,22.9028427,120.2731812,6.281,33,93,-53,100,-34,-976,1.407811164855957,1.1088571548461914,-6.281182289123535,0.02784864977002144,0.6225345134735107,-0.013578391633927822,0,0
2020-06-16,12:06:16,22.9028442,120.2731822,5.102,-10,17,74,102,26,-995,1.5700092315673828,1.2149076461791992,-5.102719306945801,0.04219367355108261,0.6252362132072449,-0.0061997901648283005,0,0
2020-06-16,12:06:19,22.9028416,120.273181,3.309,34,-22,-33,53,37,-999,1.2856273651123047,1.0971450805664062,-3.3092236518859863,0.004243865609169006,0.5985292196273804,-0.0350537970662117,0,0
2020-06-16,12:06:22,22.9028457,120.2731815,2.052,86,-88,0,82,-49,-953,1.7450523376464844,1.1406526565551758,-2.052933692932129,0.07190839946269989,0.604820728302002,0.051607631146907806,0,0
2020-06-16,12:06:25,22.9028417,120.2731807,0.798,7,-3,-3,43,49,-998,1.298574447631836,1.0662670135498047,-0.7982047200202942,0.028522241860628128,0.5392811894416809,-0.03610047698020935,0,0
