date,time,lat,lon,alt,x_gyro,y_gyro,z_gyro,x_acc,y_acc,z_acc,north,east,down,pitch,yaw,roll,wind_speed,wind_direction
2020-06-16,11:26:11,22.9028261,120.2731753,0.08,29,-40,4,-4,0,-1011,-0.05718517303466797,0.17478370666503906,-0.08030349016189575,-0.020603131502866745,-1.849929928779602,0.005030670203268528,0,0
2020-06-16,11:26:14,22.9028287,120.273175,3.838,-25,49,-18,-65,29,-1033,0.22399520874023438,0.1497955322265625,-3.8389334678649902,-0.05216511711478233,-1.9176236391067505,-0.015751034021377563,0,0
2020-06-16,11:26:17,22.9028248,120.2731744,10.469,16,58,-132,8,-54,-1016,-0.2075939178466797,0.08506584167480469,-10.469310760498047,-0.03503672778606415,-1.918042778968811,-0.005809134803712368,0,0
2020-06-16,11:26:20,22.9028243,120.2731756,17.394,43,-21,-59,-12,-13,-933,-0.26453304290771484,0.21346092224121094,-17.39452362060547,-0.022998861968517303,-1.9260019063949585,0.05974800884723663,0,0
2020-06-16,11:26:23,22.9028212,120.2731639,19.903,-6,135,1,-59,4,-971,-0.6120271682739258,-0.9901828765869141,-19.903961181640625,-0.17840047180652618,-2.002035617828369,0.021140318363904953,0,0
2020-06-16,11:26:26,22.9028001,120.2731136,20.276,99,-40,163,-45,-22,-963,-2.9522762298583984,-6.151355743408203,-20.276275634765625,-0.10368404537439346,-2.0278162956237793,0.01705325022339821,0,0
2020-06-16,11:26:29,22.9027756,120.2730577,20.101,73,43,1,-34,-31,-1035,-5.4374542236328125,-11.388677597045898,-20.19743537902832,-0.13201317191123962,-2.0566041469573975,-0.03869503363966942,0,0
2020-06-16,11:26:33,22.9027539,120.2730071,19.728,-107,-33,20,-73,63,-971,-8.098241806030273,-17.070863723754883,-19.72854995727539,-0.11528559029102325,-2.0275917053222656,-0.0591847263276577,0,0
2020-06-16,11:26:36,22.9027308,120.2729591,20.123,34,-147,35,-92,80,-979,-10.666997909545898,-21.990243911743164,-20.123106002807617,-0.13332471251487732,-1.942618489265442,-0.011971994303166866,0,0
2020-06-16,11:26:39,22.9027082,120.272905,20.06,-16,38,124,-40,42,-977,-13.180656433105469,-27.536745071411133,-20.060489654541016,-0.08625108003616333,-1.9548603296279907,0.004067533183842897,0,0
2020-06-16,11:26:42,22.902686,120.2728527,20.267,-82,255,68,-52,44,-992,-15.653186798095703,-32.89710998535156,-20.267534255981445,-0.07676887512207031,-2.016507625579834,-0.006150250323116779,0,0
2020-06-16,11:26:45,22.9026582,120.2728499,19.986,76,-28,-225,-36,-86,-1008,-18.75186538696289,-33.187164306640625,-19.986045837402344,-0.1354060173034668,2.7675514221191406,0.08048571646213531,0,0
2020-06-16,11:26:48,22.902611,120.2728735,20.017,93,-33,25,-9,-124,-992,-24.01074981689453,-30.771387100219727,-20.017160415649414,-0.05236053094267845,2.6260058879852295,0.10053293406963348,0,0
2020-06-16,11:26:51,22.9025696,120.2728993,20.164,-84,-58,19,-51,-53,-960,-28.611190795898438,-28.118322372436523,-20.16472053527832,-0.0869884118437767,2.7330257892608643,0.11810385435819626,0,0
2020-06-16,11:26:54,22.9025262,120.2729236,20.08,-64,76,-1,-54,-93,-1026,-33.45127868652344,-25.632444381713867,-20.080577850341797,-0.06141640618443489,2.7161192893981934,0.12365267425775528,0,0
2020-06-16,11:26:57,22.9024814,120.2729483,20.265,19,-55,172,-56,-89,-1005,-38.428070068359375,-23.09559440612793,-20.265426635742188,-0.06842334568500519,2.730832099914551,0.10736843943595886,0,0
2020-06-16,11:27:00,22.9024418,120.2729713,20.341,-226,151,-826,-116,-7,-1052,-42.841094970703125,-20.735158920288086,-20.341718673706055,-0.014094660989940166,2.6573173999786377,-0.0027420111000537872,0,0
2020-06-16,11:27:03,22.9024539,120.2730186,19.928,90,5,55,64,-33,-1017,-41.48926544189453,-15.88972282409668,-19.92807960510254,0.023834340274333954,0.9631357789039612,-0.009235088713467121,0,0
2020-06-16,11:27:06,22.9024836,120.2730668,19.958,-4,-21,13,55,-34,-1021,-38.190364837646484,-10.945383071899414,-19.958698272705078,0.012300960719585419,1.122029423713684,0.02224734053015709,0,0
2020-06-16,11:27:09,22.9025073,120.2731091,20.066,39,-50,47,-16,-8,-972,-35.544464111328125,-6.605243682861328,-20.066919326782227,-0.011507448740303516,1.1942908763885498,0.019747555255889893,0,0
2020-06-16,11:27:12,22.9025306,120.2731549,20.083,35,-30,9,-27,-22,-1007,-32.96044158935547,-1.9124603271484375,-20.083131790161133,-0.01733916439116001,1.2253385782241821,0.009819434024393559,0,0
2020-06-16,11:27:15,22.9025548,120.2732035,20.176,-184,236,-80,18,-55,-974,-30.260021209716797,3.0752696990966797,-20.17657470703125,0.00944443978369236,1.2539453506469727,-0.0025836387649178505,0,0
2020-06-16,11:27:18,22.902602,120.2732159,20.043,256,-294,-100,-43,84,-1019,-25.007205963134766,4.337896347045898,-20.043813705444336,-0.05778113007545471,-0.2366502583026886,-0.06206231191754341,0,0
2020-06-16,11:27:21,22.9026689,120.2732046,19.956,65,38,-26,-34,20,-1019,-17.559467315673828,3.184925079345703,-19.956193923950195,-0.009608771651983261,-0.11075758188962936,-0.05985059216618538,0,0
2020-06-16,11:27:24,22.9027276,120.2731956,19.758,100,44,-37,24,55,-1027,-11.0269775390625,2.2609176635742188,-19.758708953857422,-0.0243026502430439,-0.02077716775238514,-0.029641665518283844,0,0
2020-06-16,11:27:27,22.9027862,120.2731891,19.653,-91,20,-1,51,35,-972,-4.505313873291016,1.5909423828125,-19.65339469909668,-0.015054306946694851,-0.026308678090572357,-0.07089978456497192,0,0
2020-06-16,11:27:30,22.9028374,120.2731838,19.868,-198,-18,-49,13,131,-921,1.1978864669799805,1.0465240478515625,-19.86863899230957,0.2235611528158188,-0.062479957938194275,-0.08151974529027939,0,0
2020-06-16,11:27:33,22.9028409,120.273182,16.214,-7,-92,-18,-14,25,-1040,1.5822944641113281,0.8635215759277344,-16.21491813659668,0.03120208904147148,-0.06985664367675781,-0.05103277787566185,0,0
2020-06-16,11:27:36,22.902842,120.2731841,11.485,60,113,41,26,40,-1031,1.712930679321289,1.0839061737060547,-11.485689163208008,0.025148257613182068,-0.08847884088754654,-0.039552055299282074,0,0
2020-06-16,11:27:39,22.902841,120.2731842,9.03,3,-22,-58,43,46,-968,1.5959062576293945,1.095703125,-9.0308198928833,-0.0006502000615000725,-0.029338663443922997,-0.04219535365700722,0,0
2020-06-16,11:27:42,22.9028429,120.2731852,7.824,32,53,-28,40,104,-968,1.8127660751342773,1.1975154876708984,-7.81718635559082,0.01363966055214405,-0.039452310651540756,-0.06956879049539566,0,0
2020-06-16,11:27:45,22.9028422,120.2731834,6.35,77,-23,-53,3,3,-1043,1.7354860305786133,1.0143451690673828,-6.350592613220215,0.0023086369037628174,-0.021712549030780792,-0.04385647922754288,0,0
2020-06-16,11:27:48,22.9028415,120.2731843,4.729,-25,-64,98,12,21,-1016,1.6512374877929688,1.0979137420654297,-4.729067325592041,-0.008638746105134487,-0.016900837421417236,-0.05183803662657738,0,0
2020-06-16,11:27:51,22.9028422,120.2731828,3.286,-74,98,-8,59,20,-970,1.7322874069213867,0.9517288208007812,-3.286039352416992,-0.03371467441320419,0.02951810695230961,-0.0008964855223894119,0,0
2020-06-16,11:27:54,22.9028426,120.2731829,1.564,11,-31,-17,0,-3,-1035,1.7773122787475586,0.9563770294189453,-1.5646034479141235,-0.012590551748871803,-0.014548794366419315,-0.011940046213567257,0,0
2020-06-16,11:27:57,22.9028426,120.2731841,0.15,-85,-52,-45,8,65,-1001,1.7805957794189453,1.0863189697265625,-0.15006467700004578,-0.022814176976680756,-0.03214515000581741,-0.03494992107152939,0,0
