date,time,lat,lon,alt,x_gyro,y_gyro,z_gyro,x_acc,y_acc,z_acc,north,east,down,pitch,yaw,roll,wind_speed,wind_direction
2020-06-19,16:15:32,22.9028198,120.2731623,0.027,4,1,-8,1,64,-995,-0.015720605850219727,-0.026334762573242188,-0.0278550386428833,-0.017374012619256973,-1.848175287246704,-0.041285086423158646,0,0
2020-06-19,16:15:35,22.9028163,120.2731638,2.983,-13,-43,-17,-11,-42,-1020,-0.4105045795440674,0.12833404541015625,-2.983647108078003,-0.02892255410552025,-1.877074956893921,0.08828582614660263,0,0
2020-06-19,16:15:38,22.9028204,120.2731619,9.8,-24,-34,-39,20,-49,-988,0.045076608657836914,-0.06418228149414062,-9.800960540771484,-0.028532352298498154,-1.894599437713623,0.03438824042677879,0,0
2020-06-19,16:15:41,22.9028188,120.2731632,16.672,2,-83,-50,-34,-62,-942,-0.13202452659606934,0.063385009765625,-16.67268180847168,-0.05589717626571655,-1.8895788192749023,0.09186206012964249,0,0
2020-06-19,16:15:44,22.902813,120.2731534,19.932,17,-48,-176,5,-117,-955,-0.7775797843933105,-0.9433746337890625,-19.932594299316406,-0.11278660595417023,-2.358441114425659,0.05627159774303436,0,0
2020-06-19,16:15:47,22.9027791,120.2731111,20.034,67,79,-10,-16,-23,-1007,-4.544092178344727,-5.276163101196289,-20.03481101989746,-0.08264835923910141,-2.5224475860595703,0.05919544771313667,0,0
2020-06-19,16:15:50,22.9027411,120.2730709,20.029,-60,-4,-36,-29,-11,-974,-8.77719497680664,-9.394412994384766,-20.029407501220703,-0.06730203330516815,-2.3407111167907715,0.04922930896282196,0,0
2020-06-19,16:15:53,22.902703,120.2730289,20.098,-26,-10,-60,-22,-49,-978,-13.015060424804688,-13.709754943847656,-20.098949432373047,-0.08695784211158752,-2.289405345916748,0.04904863238334656,0,0
2020-06-19,16:15:56,22.9026704,120.272988,19.976,-60,-109,1153,-62,1,-996,-16.650094985961914,-17.903701782226562,-19.97698211669922,-0.043642811477184296,-1.3624714612960815,0.1677245795726776,0,0
2020-06-19,16:15:59,22.9027033,120.2729615,20.021,20,43,62,-90,41,-979,-12.98287582397461,-20.615966796875,-20.02122688293457,-0.09494539350271225,-0.7469332814216614,-0.02670241892337799,0,0
2020-06-19,16:16:02,22.9027436,120.2729257,20.108,-38,-76,62,-122,97,-988,-8.493812561035156,-24.2879638671875,-20.10840606689453,-0.10750570893287659,-0.5646278262138367,-0.02087850123643875,0,0
2020-06-19,16:16:05,22.9027895,120.2728919,20.077,-163,157,-94,-51,58,-952,-3.3888936042785645,-27.756000518798828,-20.0771427154541,-0.07960622757673264,-0.6399927139282227,-0.06604044139385223,0,0
2020-06-19,16:16:08,22.9028003,120.2728354,20.219,33,-26,-82,-88,32,-1008,-2.19089412689209,-33.55024719238281,-20.2193603515625,-0.09492964297533035,-1.6236900091171265,0.004242670722305775,0,0
2020-06-19,16:16:11,22.9027981,120.272777,19.896,88,36,13,-45,5,-983,-2.432209014892578,-39.53089904785156,-19.896059036254883,-0.0999615490436554,-1.7391494512557983,-0.013690334744751453,0,0
2020-06-19,16:16:14,22.9027906,120.272719,19.882,-100,265,-101,-82,-19,-1002,-3.271732807159424,-45.47940444946289,-19.882625579833984,-0.035890258848667145,-1.6031076908111572,0.005251068156212568,0,0
2020-06-19,16:16:17,22.9027591,120.2727081,19.866,54,54,-49,0,-68,-994,-6.770656108856201,-46.59745407104492,-19.866849899291992,-0.08472204953432083,2.97743821144104,0.016370831057429314,0,0
2020-06-19,16:16:20,22.9027025,120.2727173,19.908,34,63,97,-27,-36,-999,-13.069631576538086,-45.657588958740234,-19.908363342285156,-0.007232842966914177,2.930448055267334,0.0458669438958168,0,0
2020-06-19,16:16:23,22.9026526,120.2727263,20.068,-52,-59,16,-35,-3,-1008,-18.63099479675293,-44.733699798583984,-20.068716049194336,-0.03706864267587662,2.935102939605713,0.00965789519250393,0,0
2020-06-19,16:16:26,22.9026071,120.2727358,20.036,-5,13,55,-51,-7,-1007,-23.698427200317383,-43.76046371459961,-20.036823272705078,-0.051722727715969086,2.9593374729156494,0.03268923982977867,0,0
2020-06-19,16:16:29,22.9025489,120.2727469,20.008,-2,-15,-65,-32,-49,-997,-30.177082061767578,-42.621097564697266,-20.00868034362793,-0.023108555004000664,2.969400644302368,0.03573867306113243,0,0
2020-06-19,16:16:32,22.9024954,120.2727599,20.148,-312,211,-1113,11,24,-982,-36.13310241699219,-41.29336166381836,-20.148466110229492,-0.08388905227184296,1.5449333190917969,-0.16559338569641113,0,0
2020-06-19,16:16:35,22.902496,120.2728169,20.069,-27,-22,56,-75,102,-1010,-36.062774658203125,-35.44008255004883,-20.069372177124023,-0.06568624079227448,1.4680695533752441,-0.05384579673409462,0,0
2020-06-19,16:16:38,22.9024995,120.2728795,20.191,50,-109,120,45,80,-971,-35.66963195800781,-29.02853012084961,-20.1910457611084,-0.04130007326602936,1.5219186544418335,-0.07229674607515335,0,0
2020-06-19,16:16:41,22.9025004,120.2729423,19.822,22,7,-23,103,104,-943,-35.57244873046875,-22.582473754882812,-19.822467803955078,0.033683568239212036,1.3877484798431396,-0.11830752342939377,0,0
2020-06-19,16:16:44,22.9025021,120.2730031,19.86,-47,13,49,52,166,-981,-35.38198471069336,-16.35049819946289,-19.86025619506836,0.057007886469364166,1.358944058418274,-0.13864070177078247,0,0
2020-06-19,16:16:47,22.9025034,120.2730608,19.853,79,-71,-84,77,152,-1055,-35.23818588256836,-10.438350677490234,-19.853979110717773,0.06806395202875137,1.3584434986114502,-0.14916808903217316,0,0
2020-06-19,16:16:50,22.9025056,120.2731216,20.057,68,9,37,81,142,-982,-34.991172790527344,-4.202777862548828,-20.057212829589844,0.06747476011514664,1.3717535734176636,-0.1489930897951126,0,0
2020-06-19,16:16:53,22.9025231,120.2731492,19.981,313,25,-73,-134,179,-985,-33.047935485839844,-1.3639869689941406,-19.98138427734375,-0.19700230658054352,0.05201815441250801,-0.1932503879070282,0,0
2020-06-19,16:16:56,22.9025808,120.2731461,19.881,-62,-24,-144,-125,179,-963,-26.61687469482422,-1.6882438659667969,-19.881818771362305,-0.13295063376426697,-0.09072933346033096,-0.15730956196784973,0,0
2020-06-19,16:16:59,22.9026337,120.2731376,19.945,23,24,75,-100,113,-984,-20.732139587402344,-2.555246353149414,-19.945283889770508,-0.12234688550233841,0.029543202370405197,-0.08925645798444748,0,0
2020-06-19,16:17:02,22.9026845,120.2731331,19.71,-80,-47,0,-150,201,-977,-15.512313842773438,-3.0136680603027344,-19.737770080566406,-0.14623229205608368,-0.01609273999929428,-0.10586445778608322,0,0
2020-06-19,16:17:05,22.9027304,120.2731286,19.839,-74,7,30,-165,157,-995,-9.96820068359375,-3.482879638671875,-19.839305877685547,-0.15601685643196106,-0.10279873758554459,-0.08419745415449142,0,0
2020-06-19,16:17:08,22.9027902,120.2731244,19.598,-45,142,-25,-155,107,-975,-3.314990520477295,-3.9157657623291016,-19.598636627197266,-0.10066533088684082,-0.23011472821235657,-0.12130150943994522,0,0
2020-06-19,16:17:11,22.9028042,120.2731183,17.263,-82,29,78,1,27,-972,-1.758443832397461,-4.540782928466797,-17.263385772705078,-0.08043326437473297,-0.26017168164253235,-0.07548274099826813,0,0
2020-06-19,16:17:14,22.9028033,120.2731209,12.766,-203,49,-89,-36,71,-938,-1.8553423881530762,-4.273456573486328,-12.766664505004883,-0.10335716605186462,-0.21482865512371063,-0.09020133316516876,0,0
2020-06-19,16:17:17,22.9028045,120.2731221,9.571,-78,76,8,-78,33,-975,-1.7182707786560059,-4.148834228515625,-9.57186222076416,-0.12517905235290527,-0.27834439277648926,-0.061162304133176804,0,0
2020-06-19,16:17:20,22.9028071,120.2731215,7.438,26,-155,-76,-108,32,-1010,-1.4358396530151367,-4.211446762084961,-7.43879508972168,-0.09195517748594284,-0.25795701146125793,-0.022434718906879425,0,0
2020-06-19,16:17:23,22.9028048,120.2731213,6.336,-135,95,-26,-124,79,-990,-1.685096263885498,-4.232566833496094,-6.336249351501465,-0.09771312773227692,-0.22505174577236176,-0.018562722951173782,0,0
2020-06-19,16:17:26,22.9028059,120.2731219,4.795,16,-8,-3,-121,79,-1036,-1.5586833953857422,-4.1668243408203125,-4.795004367828369,-0.0725458562374115,-0.23040513694286346,-0.05862856283783913,0,0
2020-06-19,16:17:29,22.9028057,120.2731204,3.273,-84,13,-34,-33,87,-968,-1.5857839584350586,-4.32647705078125,-3.273439407348633,-0.058533113449811935,-0.25437644124031067,-0.03716332092881203,0,0
2020-06-19,16:17:32,22.9028048,120.2731205,1.938,-27,-51,5,-87,43,-999,-1.6842775344848633,-4.3078155517578125,-1.9389402866363525,-0.054349739104509354,-0.25349313020706177,-0.010303984396159649,0,0
2020-06-19,16:17:35,22.9028039,120.2731222,0.874,-1,-1,-5,-16,16,-1006,-1.7867817878723145,-4.132488250732422,-0.8741621375083923,-0.047201965004205704,-0.31873708963394165,0.0008576489053666592,0,0
