date,time,lat,lon,alt,x_gyro,y_gyro,z_gyro,x_acc,y_acc,z_acc,north,east,down,pitch,yaw,roll,wind_speed,wind_direction
2020/6/12,11:55:50,22.9028829,120.2731842,15.837,65,-39,-7,3,36,-929,0.154055834,1.149917603,-15.8371067,-0.011340134,0.669843912,-0.023484316,10,47
2020/6/12,11:55:53,22.9028856,120.2731804,19.52,-96,-68,-1319,-17,63,-956,0.450202465,0.764352798,-19.52035522,-0.069242015,-0.012217032,-0.051302083,10,47
2020/6/12,11:55:55,22.9029057,120.2731585,20.109,13,125,56,-89,-5,-986,2.390781879,-1.164957047,-20.05128288,-0.083480947,-0.858718157,0.035052843,10,47
2020/6/12,11:55:58,22.9029326,120.2731272,20.194,84,0,71,-94,-54,-1024,5.697203636,-4.692541122,-20.19403648,-0.102797553,-0.850298464,0.04417016,10,47
2020/6/12,11:56:00,22.9029648,120.2730901,19.896,-118,-19,72,-42,58,-986,9.275186539,-8.500663757,-19.8964653,-0.071225472,-0.836862683,0.033762794,10,47
2020/6/12,11:56:03,22.9029877,120.2730616,20.111,68,-17,77,-161,36,-1021,11.83051205,-11.42272758,-20.11171341,-0.127062529,-0.79063952,0.033660229,10,47
2020/6/12,11:56:05,22.9030184,120.2730251,19.885,-112,65,-50,-79,-19,-1004,15.24745178,-15.16429138,-19.88504982,-0.0780745,-0.720398843,0.056507818,10,47
2020/6/12,11:56:08,22.9030439,120.2729972,20.084,-62,25,-115,-3,-21,-982,18.0803318,-18.02219391,-20.08467102,-0.089226365,-0.712070882,0.062623382,10,47
2020/6/12,11:56:10,22.9030687,120.2729683,19.994,153,51,98,-40,-84,-1048,20.84840012,-20.98264694,-19.99421883,-0.08096166,-0.789230466,0.072451986,10,47
2020/6/12,11:56:13,22.9030946,120.2729382,20.173,-109,-156,40,-103,20,-946,23.72309875,-24.06892395,-20.17397499,-0.107447311,-0.683657706,0.061387461,10,47
2020/6/12,11:56:15,22.9031208,120.2729089,20.241,35,179,26,-21,-37,-981,26.64920235,-27.07985306,-20.24167633,-0.113270573,-0.702135086,0.046132173,10,47
2020/6/12,11:56:18,22.9031417,120.2728769,19.771,78,68,-979,21,-46,-1051,28.96894455,-30.35660172,-19.77197266,-0.028894424,-2.069961548,-0.092778824,10,47
2020/6/12,11:56:20,22.9031106,120.2728491,19.727,-75,-22,60,14,77,-972,25.47269821,-33.23112488,-19.72995567,0.009784909,-2.407244444,0.005333573,10,47
2020/6/12,11:56:23,22.9030802,120.2728242,19.979,2,-10,138,18,-3,-980,22.11994553,-35.7623024,-19.97947693,-0.004651002,-2.263215542,0.011314312,10,47
2020/6/12,11:56:25,22.9030534,120.2728,20.159,-33,-12,-13,12,47,-999,19.13832092,-38.24571609,-20.15903473,-0.020064864,-2.213411808,0.010795004,10,47
2020/6/12,11:56:28,22.9030272,120.2727737,20.242,-51,20,-84,5,-25,-1033,16.22738266,-40.93817902,-20.24240494,-0.001681803,-2.18804121,-0.000157596,10,47
2020/6/12,11:56:30,22.9029995,120.2727473,20.228,33,23,-7,23,-28,-960,13.12209415,-43.67537689,-20.22766495,-0.021186743,-2.205896616,0.025156669,10,47
2020/6/12,11:56:33,22.902973,120.2727208,20.238,42,8,68,21,-22,-1007,10.19313622,-46.36008072,-20.23805809,0.003294377,-2.225338459,0.029938385,10,47
2020/6/12,11:56:35,22.9029403,120.2726888,20.238,-94,-9,0,-16,81,-998,6.556140423,-49.6424408,-20.2385025,0.003677063,-2.236147881,0.012599964,10,47
2020/6/12,11:56:38,22.9029138,120.2726639,20.222,-82,-38,-29,-50,75,-997,3.598642111,-52.1964798,-20.2225132,-0.005727177,-2.21596384,0.02243631,10,47
2020/6/12,11:56:40,22.9028825,120.2726327,20.22,-54,-6,-71,16,28,-1003,0.110706568,-55.39772034,-20.22075844,-0.011855558,-2.222924471,0.015068437,10,47
2020/6/12,11:56:43,22.9028515,120.2726132,20.174,48,-85,-568,-21,-10,-1035,-3.347136974,-57.40300751,-20.17435837,-0.060842831,3.020909786,-0.0981194,10,47
2020/6/12,11:56:45,22.9028031,120.2726307,20.201,42,7,50,13,52,-959,-8.734494209,-55.59953308,-20.20124626,-0.013882033,2.871126175,-0.039902262,10,47
2020/6/12,11:56:48,22.902756,120.2726526,20.188,-68,-5,-14,-45,72,-970,-13.97057533,-53.36079407,-20.18811607,-0.009745041,3.00385499,-0.012985448,10,47
2020/6/12,11:56:50,22.9027135,120.2726694,20.157,-34,-13,-23,8,82,-980,-18.71227646,-51.63355255,-20.15771484,-0.023036186,2.98335433,-0.032799087,10,47
2020/6/12,11:56:53,22.9026694,120.2726874,20.149,-84,3,34,-82,52,-984,-23.61196899,-49.79371643,-20.14964867,-0.022089163,2.959036112,-0.028223217,10,47
2020/6/12,11:56:55,22.9026293,120.2727036,20.227,-77,59,-38,-32,108,-1016,-28.0832653,-48.1271286,-20.2277832,-0.037804365,2.980802536,-0.041250758,10,47
2020/6/12,11:56:58,22.9025816,120.2727234,20.155,55,0,-5,13,6,-983,-33.38894653,-46.09945297,-20.15594482,-0.014245679,2.970399857,-0.028357398,10,47
2020/6/12,11:57:01,22.9025358,120.2727421,20.234,-25,-42,6,-2,-18,-999,-38.49364471,-44.1785965,-20.23413658,-0.009706832,2.979989529,-0.031357292,10,47
2020/6/12,11:57:03,22.9024931,120.2727594,20.243,-85,21,232,-45,31,-1022,-43.23955536,-42.41151428,-20.24366379,-0.042265154,-2.97708106,0.049547594,10,47
2020/6/12,11:57:06,22.9024526,120.2727569,20.298,39,38,139,-5,51,-990,-47.75162506,-42.66324234,-20.29891014,-0.038121887,-2.878705978,-0.011502144,10,47
2020/6/12,11:57:08,22.9024102,120.2727526,20.194,34,-6,40,22,-5,-1026,-52.47331238,-43.10704803,-20.1945343,-0.033322588,-2.8282516,-0.017111622,10,47
2020/6/12,11:57:11,22.9023618,120.2727463,20.244,46,-40,-2,4,-8,-977,-57.85510254,-43.75106049,-20.24435806,-0.021430764,-2.869590044,-0.018419489,10,47
2020/6/12,11:57:13,22.9023169,120.2727406,20.16,57,-28,50,22,-1,-977,-62.39545441,-44.29563141,-20.16063118,-0.029176006,-2.880714417,-0.02482808,10,47
2020/6/12,11:57:16,22.9022765,120.2727368,20.211,154,5,26,-55,-23,-1030,-67.35449219,-44.72597885,-20.2117939,-0.024416916,-2.876054287,0.018819708,10,47
2020/6/12,11:57:18,22.9022305,120.2727315,20.251,47,28,70,0,-16,-995,-72.47249603,-45.26324081,-20.25135803,-0.032047808,-2.815459728,0.036963228,10,47
2020/6/12,11:57:21,22.9021889,120.2727229,20.214,44,21,-37,50,-71,-991,-77.100914,-46.14806747,-20.21482277,-0.044721626,-2.93470645,0.007080568,10,47
2020/6/12,11:57:23,22.902143,120.2727181,20.179,-62,-13,-154,-62,-55,-1023,-82.21322632,-46.64464569,-20.17948532,-0.048002835,-2.866806746,0.009604293,10,47
2020/6/12,11:57:26,22.9020961,120.2727153,20.256,-10,-24,100,-21,-70,-984,-87.43706512,-46.92728424,-20.25603676,-0.057132564,-2.795962334,0.070200205,10,47
2020/6/12,11:57:28,22.9020537,120.2727072,20.201,79,-15,-25,-15,-23,-1016,-92.1556778,-47.76229858,-20.20179176,-0.06317392,-2.919399977,0.042443365,10,47
2020/6/12,11:57:31,22.9020084,120.2727019,20.14,-13,21,67,-53,-1,-1005,-97.19880676,-48.29965973,-20.14030266,-0.051241584,-2.902059793,0.042537201,10,47
2020/6/12,11:57:33,22.9019677,120.2726978,20.352,13,-88,-899,-5,-57,-946,-101.730423,-48.72286224,-20.3526783,0.089632943,-3.026552677,0.026126891,10,47
2020/6/12,11:57:36,22.9019657,120.2727232,20.136,-193,307,200,-55,66,-969,-101.9561234,-46.11538315,-20.13647079,-0.041531339,1.170960188,-0.030809395,10,47
2020/6/12,11:57:38,22.9019779,120.2727737,20.179,54,-17,6,50,-55,-1001,-100.5966415,-40.93535995,-20.17965317,-0.027056754,1.273958325,0.005553219,10,47
2020/6/12,11:57:41,22.9019876,120.2728201,20.159,-190,70,-349,-48,91,-968,-99.50911713,-36.18481445,-20.15998077,-0.03333921,1.268598318,-0.010926447,10,47
2020/6/12,11:57:43,22.9019957,120.2728684,20.254,25,42,-79,-54,0,-1020,-98.61205292,-31.227108,-20.25473022,-0.057756882,1.254363179,-0.038414277,10,47
2020/6/12,11:57:46,22.9020076,120.2729252,20.268,-5,-24,63,-118,107,-999,-97.28355408,-25.40731812,-20.26858902,-0.073244415,1.258839488,-0.034595005,10,47
2020/6/12,11:57:48,22.9020191,120.2729751,20.292,115,-49,90,-12,-57,-986,-96.01066589,-20.28871918,-20.29283905,-0.056026373,1.305478096,-0.015471949,10,47
2020/6/12,11:57:51,22.9020296,120.2730347,20.162,-31,23,7,-57,72,-993,-94.83889008,-14.17402458,-20.16281891,-0.067432873,1.224178791,-0.036198344,10,47
2020/6/12,11:57:53,22.9020412,120.2730917,20.269,-10,-20,-12,-67,15,-994,-93.54335022,-8.33350563,-20.26948738,-0.055982955,1.252349973,-0.019246962,10,47
2020/6/12,11:57:56,22.902051,120.2731478,20.224,-127,98,83,-79,61,-985,-92.4590683,-2.574144363,-20.22441292,-0.068422668,1.156644821,-0.045755055,10,47
2020/6/12,11:57:58,22.9020616,120.2731999,20.168,121,10,-59,-37,-40,-1029,-91.27781677,2.761681557,-20.16877365,-0.065657318,1.193124652,-0.076683491,10,47
2020/6/12,11:58:01,22.9020775,120.2732491,20.541,-55,-79,-10,-8,-5,-1102,-89.50827026,7.810689926,-20.54147339,0.090529539,1.181605816,0.040886361,10,47
2020/6/12,11:58:03,22.9020755,120.2732536,24.847,-60,-38,76,30,101,-949,-89.7252121,8.265739441,-24.84706497,-0.003719891,1.151809216,-0.006886942,10,47
2020/6/12,11:58:06,22.9020738,120.273258,29.355,-71,8,-78,47,48,-943,-89.91007996,8.720775604,-29.36829948,-0.012240286,1.144149899,-0.112999722,10,47
2020/6/12,11:58:08,22.9021051,120.2732562,30.156,-142,-41,134,-129,160,-967,-86.4379425,8.53978157,-30.15657997,-0.05629535,1.180723548,-0.184558257,10,47
2020/6/12,11:58:11,22.9021815,120.2732507,30.466,105,164,53,-11,107,-976,-77.92980957,7.96999073,-30.46608925,-0.009568375,1.23344779,-0.148296103,10,47
2020/6/12,11:58:13,22.9022793,120.2732372,30.413,-84,-85,-87,-60,82,-1033,-67.04579926,6.583534241,-30.41358948,-0.067627832,1.243117809,-0.080794476,10,47
2020/6/12,11:58:16,22.9023846,120.2732274,29.902,-103,11,-53,-29,78,-991,-55.32463837,5.587859154,-29.90236664,-0.064826608,1.226101637,-0.061401512,10,47
2020/6/12,11:58:18,22.9024858,120.2732165,30.075,8,-55,2,-12,12,-931,-44.05443573,4.466215134,-30.07565689,-0.064460501,1.226053476,-0.087344907,10,47
2020/6/12,11:58:21,22.9025887,120.2732075,30.08,66,3,3,52,22,-963,-32.59537506,3.547728539,-30.08033562,-0.036950275,1.193374753,-0.101516791,10,47
2020/6/12,11:58:23,22.902698,120.2731967,30.193,59,18,-12,19,48,-973,-20.43255615,2.434113503,-30.19302559,-0.028278749,1.168479443,-0.100332089,10,47
2020/6/12,11:58:26,22.902808,120.2731842,30.333,24,0,-16,-56,78,-986,-8.191019058,1.155075073,-30.33325958,-0.004241385,1.185091734,-0.006128209,10,47
2020/6/12,11:58:28,22.9028694,120.2731752,29.907,137,0,18,33,-66,-1031,-1.350086689,0.233377457,-29.90711784,0.01008768,1.187482119,0.067621142,10,47
2020/6/12,11:58:31,22.9028772,120.2731733,29.905,-55,-6,-67,-41,2,-1006,-0.488543272,0.035167694,-29.90579414,-0.031195689,1.177475572,0.002159343,10,47
