date,time,lat,lon,alt,x_gyro,y_gyro,z_gyro,x_acc,y_acc,z_acc,north,east,down,pitch,yaw,roll,wind_speed,wind_direction
2020/6/12,11:39:59,22.9028934,120.27315,18.561,-151,-68,-19,-29,13,-889,0.252037764,-0.626876831,-18.56121635,-0.077518985,-2.171756268,0.035489336,9,53
2020/6/12,11:40:01,22.9028751,120.2731511,19.979,-94,-79,-20,-56,46,-968,-1.784565449,-0.515357971,-19.97948456,-0.063646913,-2.182641506,-0.055299703,9,53
2020/6/12,11:40:04,22.9028109,120.2731581,20.097,-10,35,-9,-38,-15,-1005,-8.935192108,0.198705673,-20.09751701,-0.105956011,2.927023411,-0.000977566,9,53
2020/6/12,11:40:06,22.9027248,120.2731756,20.108,-15,-39,40,-78,6,-995,-18.51984596,1.992477417,-20.10814095,-0.083917484,2.97379756,0.018677698,9,53
2020/6/12,11:40:09,22.9026327,120.2731947,20.181,-62,8,2,-65,-2,-963,-28.76717758,3.951109886,-20.18199158,-0.141146153,3.084771872,0.009660568,9,53
2020/6/12,11:40:11,22.902533,120.2732098,20.218,33,-67,33,-104,26,-982,-39.86817551,5.500904083,-20.21895218,-0.137897149,3.109392643,0.010456054,9,53
2020/6/12,11:40:14,22.9024338,120.2732235,20.311,54,-71,-21,-17,49,-942,-50.91208267,6.908151627,-20.31199837,-0.113331348,3.105064631,0.030034449,9,53
2020/6/12,11:40:16,22.9023164,120.2732343,20.328,125,-204,67,-51,-28,-1017,-63.98500824,8.013454437,-20.32821274,-0.157909706,-3.123675346,0.042413592,9,53
2020/6/12,11:40:19,22.9022061,120.2732378,20.176,43,-37,44,-98,32,-978,-76.25756073,8.376478195,-20.17670441,-0.126165956,-3.107247353,-0.014076577,9,53
2020/6/12,11:40:21,22.9021004,120.2732343,20.022,-5,7,205,-78,3,-1024,-88.02910614,8.010177612,-20.02254105,-0.138141036,-2.755440474,0.104284734,9,53
2020/6/12,11:40:24,22.9020149,120.2731834,19.904,31,-40,60,-139,39,-996,-97.54640198,2.799032211,-19.90480614,-0.142706469,-2.464553118,-0.00311341,9,53
2020/6/12,11:40:26,22.9019345,120.2731135,19.864,-32,78,16,-73,68,-980,-106.4970093,-4.374425888,-19.86419487,-0.122525655,-2.356838465,0.010958821,9,53
2020/6/12,11:40:29,22.901877,120.2730372,20.208,-86,49,371,-121,102,-1043,-112.896698,-12.19633484,-20.20852089,-0.131764293,-1.556497335,0.14251323,9,53
2020/6/12,11:40:32,22.9018952,120.2729539,20.135,0,40,46,-73,12,-1002,-110.8678207,-20.73719978,-20.13554573,-0.153093845,-1.12549901,0.042961601,9,53
2020/6/12,11:40:34,22.9019465,120.2728498,20.333,103,72,285,-122,97,-979,-105.1619492,-31.41396523,-20.33347893,-0.071630426,-0.933346868,0.10065902,9,53
2020/6/12,11:40:37,22.9020161,120.2727944,20.347,2,-10,128,-104,102,-993,-97.41160583,-37.09284973,-20.34724426,-0.120677888,-0.304051518,0.056483239,9,53
2020/6/12,11:40:39,22.9021132,120.2727683,20.295,43,3,18,-13,-43,-979,-86.59825897,-39.76654816,-20.29506111,-0.108961456,-0.144182712,0.000165749,9,53
2020/6/12,11:40:42,22.9022283,120.2727525,20.375,78,-26,348,-63,30,-993,-73.78433228,-41.39542389,-20.37512016,-0.072842151,0.053405654,0.103246018,9,53
2020/6/12,11:40:44,22.9023148,120.2727846,20.148,-25,-52,122,-54,-6,-991,-64.15480042,-38.10228729,-20.14805794,-0.113367736,0.601111591,0.064463779,9,53
2020/6/12,11:40:47,22.9023988,120.2728563,20.159,-3,-3,-16,-73,0,-1019,-54.80404663,-30.74703789,-20.15923119,-0.114367858,0.752691984,0.013513615,9,53
2020/6/12,11:40:49,22.902467,120.2729188,20.059,-7,267,-241,-24,72,-1003,-47.21796036,-24.33994484,-20.05933762,0.056666799,0.431781054,-0.134218052,9,53
2020/6/12,11:40:52,22.9025356,120.2729056,20.163,7,77,-14,11,-23,-953,-39.57416916,-25.69359779,-20.16383553,-0.144190341,-0.721072614,-0.105631866,9,53
2020/6/12,11:40:54,22.9025997,120.2728404,20.176,-17,7,17,-102,7,-983,-32.44692993,-32.37992096,-20.17674446,-0.139573574,-0.710864484,0.014085155,9,53
2020/6/12,11:40:57,22.9026756,120.2727619,20.087,10,-26,210,-178,43,-1015,-24.84891701,-39.69287872,-20.08914757,-0.131532282,-0.619358301,0.077234253,9,53
2020/6/12,11:40:59,22.9027549,120.2727106,19.977,-9,-72,38,-179,23,-993,-15.16786766,-45.6891861,-19.97737503,-0.144820705,-0.379919678,0.027618024,9,53
2020/6/12,11:41:02,22.9028491,120.2726748,20.295,57,75,309,-146,57,-1005,-4.679141045,-49.35435486,-20.29571152,-0.072599322,-0.170642823,0.078850061,9,53
2020/6/12,11:41:04,22.9029351,120.272704,19.841,42,37,140,-55,45,-972,4.898207664,-46.36310577,-19.84171486,-0.134355575,0.712528706,0.004114298,9,53
2020/6/12,11:41:07,22.9029987,120.2727719,19.88,9,-16,4,-100,54,-982,11.98062325,-39.39816284,-19.88083649,-0.128725082,0.883746982,-0.008161102,9,53
2020/6/12,11:41:09,22.9030616,120.2728559,20.496,6,45,16,-144,62,-1083,18.98218727,-30.78352928,-20.49666214,0.016283914,0.898805141,-0.026701789,9,53
2020/6/12,11:41:12,22.9030999,120.2729041,25.052,53,-14,-33,40,21,-1039,23.25060463,-25.84284019,-25.05241013,0.096454449,0.883776009,0.008387515,9,53
2020/6/12,11:41:14,22.9030987,120.272908,29.495,22,-10,15,46,-4,-927,23.11183357,-25.44472694,-29.49522591,-0.014318382,0.873262703,0.105773792,9,53
2020/6/12,11:41:17,22.903069,120.272939,30.109,-30,-5,18,-81,37,-1005,19.80691338,-22.26438332,-30.10998344,-0.035434689,0.896611273,0.113856666,9,53
2020/6/12,11:41:19,22.9030126,120.2730054,30.294,-16,43,-40,-19,-10,-976,13.53010178,-15.45862007,-30.29462051,-0.021463426,0.891379118,0.086102799,9,53
2020/6/12,11:41:22,22.9029476,120.2730865,30.287,-76,34,21,30,-43,-980,6.292824745,-7.144662857,-30.28717232,-0.011735147,0.8772493,0.053480871,9,53
2020/6/12,11:41:24,22.9029001,120.2731478,30.025,-35,73,52,0,-71,-1023,0.993893802,-0.85723877,-30.02568436,0.005174447,0.880708754,-0.089555524,9,53
2020/6/12,11:41:27,22.9028929,120.2731586,29.906,26,-13,24,30,-23,-980,0.199075699,0.254959106,-29.90645599,0.013796329,0.907286882,-0.024443455,9,53
2020/6/12,11:41:29,22.9028902,120.2731557,30.025,31,26,41,37,58,-979,-0.107009649,-0.041355133,-30.02592468,-0.042739369,0.907544732,-0.00587038,9,53
2020/6/12,11:41:32,22.9028908,120.2731568,27.662,-4,5,38,33,25,-1004,-0.036787033,0.071773529,-27.66250992,0.007154312,0.886253476,0.010264383,9,53
2020/6/12,11:41:34,22.9028905,120.2731556,23.937,15,-31,-9,-9,26,-997,-0.075425029,-0.059797287,-23.93789864,-0.010313774,0.914160371,-0.006569673,9,53
,,,,,,,,,,,,,,,,,,
,,,,,,,,,,,,,,,,,,
,,,,,,,,,,,,,,,,,,
,,,,,,,,,,,,,,,,,,
,,,,,,,,,,,,,,,,,,
,,,,,,,,,,,,,,,,,,
,,,,,,,,,,,,,,,,,,
,,,,,,,,,,,,,,,,,,
,,,,,,,,,,,,,,,,,,
,,,,,,,,,,,,,,,,,,
,,,,,,,,,,,,,,,,,,
,,,,,,,,,,,,,,,,,,
