date,time,lat,lon,alt,x_gyro,y_gyro,z_gyro,x_acc,y_acc,z_acc,north,east,down,pitch,yaw,roll,wind_speed,wind_direction
2020/6/20,17:00:20,22.9028125,120.2731221,0.007,0,0,0,-27,9,-1001,-0.01959157,0.063408852,-0.007879317,-0.039921284,-0.021651668,-0.008191713,22,280
2020/6/20,17:00:23,22.9028113,120.273124,0.084,-20,5,-1,-24,34,-1020,-0.154989958,0.264531016,-0.084369838,-0.03895887,-0.020647034,-0.008684711,22,280
2020/6/20,17:00:26,22.9028106,120.2731233,3.717,83,85,-80,-40,39,-1032,-0.225999594,0.192933202,-3.717079639,-0.016558979,-0.065867178,-0.020004325,22,280
2020/6/20,17:00:29,22.9028115,120.2731248,10.516,8,-37,-35,-35,32,-1016,-0.130237818,0.34340024,-10.51634884,-0.042712767,-0.02945083,-0.054044034,22,280
2020/6/20,17:00:32,22.9028116,120.2731233,17.704,-6,-27,18,-21,-36,-914,-0.118360281,0.187289834,-17.70449448,-0.031067498,-0.031193521,-0.017078642,22,280
2020/6/20,17:00:35,22.9028102,120.2731076,20.092,-13,-84,-197,-41,24,-929,-0.271471739,-1.433750391,-20.09231758,-0.186763659,-1.722699642,0.031206261,22,280
2020/6/20,17:00:38,22.9028079,120.2730536,20.321,191,10,3,-55,-19,-1009,-0.533472776,-6.970273972,-20.3210125,-0.104100831,-1.723225713,0.019411992,22,280
2020/6/20,17:00:41,22.9028019,120.2729911,20.115,-72,-30,-65,-82,31,-1008,-1.199955225,-13.3776989,-20.11589622,-0.081086978,-1.643446088,0.032383472,22,280
2020/6/20,17:00:44,22.9027965,120.272924,19.886,-23,43,99,-87,-8,-1003,-1.800831079,-20.26123619,-19.88684082,-0.069418646,-1.6243397,0.028030299,22,280
2020/6/20,17:00:47,22.9027783,120.2728864,19.693,-4,55,-146,-11,-48,-1027,-3.819275141,-24.11392975,-19.69322586,-0.113957271,2.947306633,-0.022083916,22,280
2020/6/20,17:00:51,22.9027274,120.2728917,19.846,-97,-8,-46,-24,11,-973,-9.49089241,-23.57307434,-19.84630203,-0.039202131,2.818209648,-0.004348645,22,280
2020/6/20,17:00:54,22.90268,120.2729041,20.046,5,-16,12,-41,-64,-977,-14.767066,-22.30283165,-20.04603195,-0.07294102,2.976519108,0.091633514,22,280
2020/6/20,17:00:57,22.9026329,120.272928,20.314,60,56,-219,69,-77,-960,-20.01494217,-19.85184479,-20.31485939,0.026608575,2.074827671,-0.009364245,22,280
2020/6/20,17:01:00,22.902602,120.2729818,19.979,-55,13,67,-14,48,-1010,-23.44746208,-14.33333778,-19.9797287,0.029344618,1.953638434,0.048027124,22,280
2020/6/20,17:01:03,22.9025783,120.2730258,20.02,-48,0,12,7,14,-999,-26.08493423,-9.82007122,-20.02069473,0.002655873,1.972986102,0.033740208,22,280
2020/6/20,17:01:06,22.9025491,120.2730739,20.019,16,42,39,-38,21,-1005,-29.34339523,-4.882570744,-20.01930618,-0.010269565,1.823542595,0.000709094,22,280
2020/6/20,17:01:09,22.9025258,120.2731264,20.062,-28,246,-53,-21,-36,-1001,-31.93011856,0.504228592,-20.06297684,0.076913834,2.074274063,0.070174769,22,280
2020/6/20,17:01:12,22.9025252,120.2731456,20.148,-120,-105,208,-38,119,-979,-32.00038147,2.479936838,-20.14836121,-0.146994993,-0.258619606,-0.112007901,22,280
2020/6/20,17:01:15,22.9025767,120.2731389,20.261,-92,28,18,1,128,-979,-26.26848412,1.790685654,-20.26110649,-0.062883496,-0.085441962,-0.103846155,22,280
2020/6/20,17:01:18,22.9026256,120.2731323,20.015,-53,39,43,2,126,-962,-20.82298088,1.113181353,-20.01573372,-0.044703521,0.013404692,-0.094836526,22,280
2020/6/20,17:01:21,22.902677,120.273127,19.509,31,-19,-29,-53,64,-1034,-15.10012722,0.569798946,-19.509161,-0.074317679,0.088266797,-0.047197282,22,280
2020/6/20,17:01:24,22.9027331,120.2731261,19.445,-46,15,-101,-39,94,-989,-8.853718758,0.481246591,-19.44554138,-0.032854147,-0.049709935,-0.087819755,22,280
2020/6/20,17:01:27,22.9027855,120.2731214,19.597,-46,490,29,-23,-29,-965,-3.021347284,-0.009122729,-19.5971241,0.02403193,-0.124600567,-0.056236375,22,280
2020/6/20,17:01:30,22.9028024,120.2731203,17.008,84,129,25,42,-2,-968,-1.145802259,-0.122553468,-17.00812912,-0.038881972,-0.05037833,-0.059437189,22,280
2020/6/20,17:01:33,22.9028053,120.2731224,12.552,7,-54,-28,19,55,-937,-0.816846609,0.09464395,-12.55254364,-0.011247933,-0.067100234,-0.075459525,22,280
2020/6/20,17:01:36,22.9028048,120.273122,9.501,39,-1,0,-52,39,-1005,-0.871684313,0.055913568,-9.50180912,-0.056625541,-0.0610823,-0.076569937,22,280
2020/6/20,17:01:39,22.9028049,120.2731223,7.962,119,-85,43,-45,-18,-980,-0.86259532,0.088825941,-7.962913036,-0.068178579,-0.063216165,-0.037393194,22,280
2020/6/20,17:01:42,22.902806,120.2731218,6.298,82,-83,22,-1,14,-1008,-0.739038706,0.031300783,-6.298484802,-0.068825424,-0.021578651,-0.043216664,22,280
2020/6/20,17:01:45,22.9028049,120.2731204,4.855,-59,34,10,-44,51,-1002,-0.864906549,-0.103517532,-4.855229855,-0.060376883,-0.03206677,-0.018825006,22,280
2020/6/20,17:01:48,22.9028053,120.2731239,3.5,-37,-53,-25,-73,61,-1003,-0.819889784,0.252398849,-3.50033474,-0.025131732,-0.059485804,-0.083569713,22,280
2020/6/20,17:01:51,22.9028063,120.2731204,1.844,71,13,-36,-32,32,-1013,-0.709171534,-0.109348774,-1.844851971,-0.021862006,-0.084837213,-0.027793184,22,280
2020/6/20,17:01:54,22.9028051,120.2731215,0.385,-16,-12,42,-42,65,-990,-0.8457973,0.002230525,-0.385520518,-0.048039898,-0.05210324,-0.023057554,22,280
2020/6/20,17:01:57,22.9028055,120.27312,-0.225,-1,-4,6,-47,11,-1002,-0.792364836,-0.153844655,0.226576209,-0.046652082,-0.032228176,-0.027097844,22,280
