date,time,lat,lon,alt,x_gyro,y_gyro,z_gyro,x_acc,y_acc,z_acc,north,east,down,pitch,yaw,roll,wind_speed,wind_direction
2020/6/14,10:50:28,22.9029768,120.2731055,20.208,42,113,2,47,76,-985,4.767422676,-7.926815987,-20.3396492,-0.00981445,-0.98507762,-0.06866423,17,200
2020/6/14,10:50:30,22.9030034,120.2730581,20.134,20,27,-67,81,63,-983,7.054092407,-11.63222027,-20.13436699,0.026180204,-0.8993572,-0.077540688,17,200
2020/6/14,10:50:33,22.9030267,120.2730205,20.341,12,13,8,69,72,-1006,9.642102242,-15.48421574,-20.34135628,0.012825362,-0.915629029,-0.089528114,17,200
2020/6/14,10:50:35,22.9030479,120.2729811,20.099,27,-99,-67,55,52,-1003,12.00638676,-19.52555847,-20.0999012,0.047813237,-0.818017662,-0.048134651,17,200
2020/6/14,10:50:38,22.9030705,120.2729481,20.068,-39,-27,-115,84,127,-950,14.52177715,-22.91517258,-20.06877136,0.057805158,-0.903926909,-0.074483611,17,200
2020/6/14,10:50:40,22.9030893,120.2729174,20.097,-26,-3,-104,80,112,-957,16.61856461,-26.06511307,-20.09737396,0.056676492,-0.984572232,-0.120258905,17,200
2020/6/14,10:50:43,22.9031068,120.2728913,20.174,-273,-37,-819,-8,249,-954,18.56335831,-28.74003983,-20.17490005,0.075704776,-1.045161605,-0.148801893,17,200
2020/6/14,10:50:45,22.903102,120.2728549,19.91,25,174,-51,-140,137,-1025,18.02383041,-32.47503281,-19.91030693,-0.239273578,-2.198088884,-0.174617261,17,200
2020/6/14,10:50:48,22.9030548,120.2728069,20.12,108,-136,-5,-147,214,-987,12.77663517,-37.39375305,-20.12080765,-0.122772865,-2.380808353,-0.187200814,17,200
2020/6/14,10:50:50,22.903015,120.2727786,20.458,-37,149,171,-92,128,-998,8.821507454,-39.98226547,-20.39027786,-0.108308703,-2.251643658,-0.066635877,17,200
2020/6/14,10:50:53,22.9029797,120.2727492,20.391,6,263,-27,-107,144,-1014,4.418259621,-43.31315231,-20.39145851,-0.112439208,-2.1228652,-0.066401146,17,200
2020/6/14,10:50:55,22.9029488,120.2727153,20.444,-36,34,-66,-78,111,-1032,0.975291252,-46.78659058,-20.44402313,-0.066429436,-2.298237324,-0.156534523,17,200
2020/6/14,10:50:58,22.9029139,120.2726849,20.177,-45,-1,-115,-28,167,-967,-2.915723801,-49.90706635,-20.17729378,-0.088780463,-2.302672148,-0.115956001,17,200
2020/6/14,10:51:00,22.9028772,120.2726515,20.14,32,62,120,-99,126,-920,-6.993237495,-53.32752228,-20.14014626,-0.132429227,-2.312862873,-0.118175961,17,200
2020/6/14,10:51:03,22.9028387,120.2726182,20.382,-1,-71,-112,-133,126,-925,-11.29497719,-56.74284363,-20.38257408,-0.085100494,-2.286821365,-0.128535062,17,200
2020/6/14,10:51:05,22.9028174,120.272611,20.457,-38,190,-301,-96,-25,-1037,-13.66463852,-57.48327637,-20.45756912,-0.267595619,2.63095808,0.032273624,17,200
2020/6/14,10:51:08,22.9027667,120.2726512,20.533,48,-55,-108,-74,-26,-971,-19.345644,-53.33154297,-20.53406143,-0.170102522,2.33389616,0.044985291,17,200
2020/6/14,10:51:10,22.9027353,120.2726852,20.383,-44,-186,-134,-106,17,-976,-22.82922745,-49.84197998,-20.37963104,-0.12992467,2.21675396,0.040406939,17,200
2020/6/14,10:51:13,22.9027003,120.2727272,20.073,-27,43,-48,-142,-19,-973,-26.69768143,-45.56185532,-20.07382202,-0.151087254,2.396075964,0.044351377,17,200
2020/6/14,10:51:15,22.9026716,120.2727572,19.861,-44,-96,25,-234,-112,-960,-29.89175034,-42.49123001,-19.86108208,-0.155529499,2.351217747,0.069210351,17,200
2020/6/14,10:51:18,22.9026317,120.2728,19.772,77,-11,-48,-233,-194,-996,-34.33881378,-38.09526443,-19.77217102,-0.225382119,2.342362881,0.138026252,17,200
2020/6/14,10:51:20,22.9026048,120.2728254,19.925,-189,72,-37,-170,-79,-1007,-38.70796204,-34.41998672,-20.06424522,-0.197877541,2.227358818,0.062897861,17,200
2020/6/14,10:51:23,22.902556,120.2728749,20.074,83,69,3,-136,-136,-1007,-42.76667786,-30.41712952,-20.07441711,-0.176958472,2.166172743,0.109267369,17,200
2020/6/14,10:51:25,22.9025186,120.2729123,20.435,85,-29,145,-114,-17,-967,-46.93054199,-26.57947922,-20.43524361,-0.168688372,2.195253372,0.043699071,17,200
2020/6/14,10:51:28,22.9024889,120.2729316,20.16,-55,-58,150,-148,134,-1001,-49.09766769,-24.50590515,-20.29180908,-0.230906397,3.107320786,0.089665659,17,200
2020/6/14,10:51:30,22.9024341,120.2729148,19.794,-20,3,53,-231,38,-1008,-56.33377075,-26.32818604,-19.79428673,-0.211079657,-2.881834745,-0.091029942,17,200
2020/6/14,10:51:33,22.9023925,120.2729008,19.915,-192,50,25,-154,110,-968,-60.96842575,-27.76342773,-19.91509056,-0.193820357,-2.820313454,-0.104457714,17,200
2020/6/14,10:51:35,22.9023333,120.2728804,20.14,-3,-6,-13,-178,116,-937,-67.55644226,-29.85116959,-20.1405735,-0.198309705,-2.804795265,-0.118794985,17,200
2020/6/14,10:51:38,22.9022851,120.2728634,20.258,34,-66,-35,-172,88,-967,-72.92272949,-31.59759903,-20.25842094,-0.181798846,-2.82885766,-0.107721835,17,200
2020/6/14,10:51:40,22.9022412,120.2728478,20.288,29,5,-34,-126,92,-1042,-77.8110199,-33.19945526,-20.28873825,-0.144098297,-2.815632105,-0.131090865,17,200
2020/6/14,10:51:43,22.9022148,120.2728368,20.202,-74,14,-40,-142,124,-990,-80.73996735,-34.32369614,-20.20214462,-0.164219409,-2.912919521,-0.085436575,17,200
2020/6/14,10:51:45,22.9021404,120.2728137,20.261,225,-160,-65,-218,125,-959,-89.02887726,-36.69046021,-20.26152229,-0.204793662,-2.800111532,-0.062301125,17,200
2020/6/14,10:51:48,22.9021015,120.2728005,20.375,279,-512,250,15,-74,-868,-93.91949463,-38.21231079,-20.41744232,-0.088338703,-2.776565075,-0.031722672,17,200
2020/6/14,10:51:50,22.9020546,120.2727821,20.195,-188,50,-273,-170,84,-1060,-98.62374115,-39.95562744,-20.19186401,-0.130263641,-2.866597176,-0.059036341,17,200
2020/6/14,10:51:53,22.901996,120.2727612,20.054,-59,19,-24,-160,68,-1011,-105.1045609,-42.08141708,-20.0547123,-0.219878182,-2.887268782,-0.068509161,17,200
2020/6/14,10:51:55,22.9019596,120.2727479,19.761,56,-5,20,-174,-1,-1055,-109.1490707,-43.44607544,-19.76108742,-0.230417743,-2.917245388,-0.079421297,17,200
2020/6/14,10:51:58,22.9019093,120.2727311,19.926,-10,174,-688,-265,-20,-1008,-114.7535324,-45.16576767,-19.92640305,-0.138323218,-3.035906792,-0.1750727,17,200