date,time,lat,lon,alt,x_gyro,y_gyro,z_gyro,x_acc,y_acc,z_acc,north,east,down,pitch,yaw,roll,wind_speed,wind_direction
2020-06-15,17:54:12,22.9030479,120.2731223,-0.038,2,-1,0,5,-14,-999,0.08542156219482422,-0.04291534423828125,0.03882026672363281,-0.011557345278561115,-1.2224178314208984,0.028613388538360596,0,0
2020-06-15,17:54:15,22.9030467,120.2731226,-0.122,13,0,6,16,-12,-996,-0.0459136962890625,-0.020023345947265625,0.12270325422286987,-0.01094859465956688,-1.2228984832763672,0.0281500443816185,0,0
2020-06-15,17:54:18,22.9030239,120.2731182,1.042,41,22,-1207,14,-53,-1057,-2.5909929275512695,-0.46887969970703125,-1.0429482460021973,-0.06142246723175049,-1.9610813856124878,-0.06883962452411652,0,0
2020-06-15,17:54:21,22.9029313,120.273099,6.829,-89,-38,76,-48,42,-996,-12.895124435424805,-2.432842254638672,-6.829510688781738,-0.1179533302783966,-3.041712999343872,0.03726040571928024,0,0
2020-06-15,17:54:24,22.9028287,120.2730835,12.329,45,58,20,0,-59,-1013,-24.33186149597168,-4.026287078857422,-12.329447746276855,-0.06180543079972267,-2.999467611312866,0.06435229629278183,0,0
2020-06-15,17:54:27,22.9027203,120.2730637,18.045,41,14,-25,-114,-45,-1024,-36.393306732177734,-6.059812545776367,-18.04531478881836,-0.09077449887990952,-2.972919464111328,0.06464404612779617,0,0
2020-06-15,17:54:30,22.9026529,120.2730495,20.164,41,103,-150,9,-109,-1037,-43.89584732055664,-7.514291763305664,-20.164806365966797,0.05966901034116745,-2.6903908252716064,0.17572546005249023,0,0
2020-06-15,17:54:33,22.9026778,120.2730034,20.288,5,-95,-72,-178,36,-1011,-41.12200927734375,-12.234254837036133,-20.288314819335938,-0.2445528507232666,-1.1714484691619873,-0.028190020471811295,0,0
2020-06-15,17:54:36,22.9027261,120.2729012,20.17,53,-19,74,-161,7,-996,-35.74501419067383,-22.71329689025879,-20.17093276977539,-0.1669645607471466,-1.0902833938598633,-0.019042793661355972,0,0
2020-06-15,17:54:39,22.9027868,120.2727755,20.008,62,52,-18,-166,-5,-1011,-28.99673080444336,-35.60723114013672,-20.008590698242188,-0.14377222955226898,-1.0349948406219482,-0.029578067362308502,0,0
2020-06-15,17:54:42,22.9028452,120.2726601,20.055,-56,292,-63,-75,131,-983,-22.493621826171875,-47.44551086425781,-20.05517578125,-0.06374244391918182,-1.007010579109192,-0.0005269469693303108,0,0
2020-06-15,17:54:45,22.9028928,120.2725927,19.702,-33,-29,-150,-4,-18,-1043,-17.197834014892578,-54.357383728027344,-19.70235824584961,-0.014701863750815392,-0.30630189180374146,0.11830169707536697,0,0
2020-06-15,17:54:48,22.9029394,120.2726375,19.885,-44,62,39,-88,93,-969,-11.997385025024414,-49.760414123535156,-19.885555267333984,-0.13559535145759583,0.6708341240882874,-0.0330623984336853,0,0
2020-06-15,17:54:51,22.9030179,120.2727169,20.182,13,-14,45,-83,24,-1053,-3.253350257873535,-41.61469268798828,-20.182540893554688,-0.10402671247720718,0.698676586151123,-0.052006881684064865,0,0
2020-06-15,17:54:54,22.9031062,120.2728044,20.375,-4,26,30,-35,64,-1093,6.578827857971191,-32.63953399658203,-20.375988006591797,0.033768244087696075,0.7435578107833862,-0.07459892332553864,0,0
2020-06-15,17:54:57,22.9031495,120.2728396,25.727,-62,-51,0,33,105,-1023,11.395495414733887,-29.032217025756836,-25.727718353271484,0.07439576834440231,0.6712859272956848,-0.03729758411645889,0,0
2020-06-15,17:55:00,22.9031442,120.2728505,29.742,-31,9,37,-22,73,-953,10.799040794372559,-27.91689109802246,-29.742530822753906,-0.01660277508199215,0.7055937647819519,0.025758955627679825,0,0
2020-06-15,17:55:03,22.9031172,120.2729129,30.053,62,-17,20,31,-84,-999,7.800322532653809,-21.522268295288086,-30.053794860839844,-0.050231896340847015,0.7241211533546448,0.027508452534675598,0,0
2020-06-15,17:55:06,22.9030768,120.2730308,30.056,19,29,-34,4,-41,-1012,3.304080009460449,-9.429367065429688,-30.056602478027344,-0.017093900591135025,0.698758602142334,0.013589320704340935,0,0
2020-06-15,17:55:09,22.9030514,120.2731157,30.11,17,-6,15,10,-67,-1034,0.47292041778564453,-0.7230606079101562,-30.110233306884766,0.0743093192577362,0.6920342445373535,-0.14663001894950867,0,0
2020-06-15,17:55:12,22.9030475,120.273123,30.299,11,17,41,58,63,-943,0.04133415222167969,0.02535247802734375,-30.299522399902344,0.015569567680358887,0.6728504300117493,-0.08941935002803802,0,0
2020-06-15,17:55:15,22.9030457,120.2731248,29.529,8,-28,-32,37,130,-909,-0.16149616241455078,0.2104625701904297,-29.52904510498047,0.022068314254283905,0.6884442567825317,-0.0977485328912735,0,0
2020-06-15,17:55:18,22.9030458,120.2731223,25.373,-123,40,30,98,58,-968,-0.15155792236328125,-0.045673370361328125,-25.373329162597656,0.003820156678557396,0.6812118887901306,-0.04338588938117027,0,0
2020-06-15,17:55:21,22.9030449,120.273122,20.216,-224,-119,91,-19,102,-1039,-0.2506589889526367,-0.07401657104492188,-20.21625518798828,0.0038816481828689575,0.7401565313339233,-0.09531345963478088,0,0
2020-06-15,17:55:24,22.9030454,120.273122,15.805,46,-123,-10,-23,16,-1022,-0.19303512573242188,-0.07952308654785156,-15.805870056152344,-0.01336972787976265,0.7298107147216797,-0.05154913291335106,0,0
2020-06-15,17:55:27,22.9030482,120.2731233,11.329,48,53,-87,19,-42,-1005,0.12116241455078125,0.0544281005859375,-11.329826354980469,0.010351978242397308,0.7116701006889343,-0.008373654447495937,0,0
2020-06-15,17:55:30,22.9030459,120.2731232,9.18,-27,51,-55,-29,127,-966,-0.13918113708496094,0.043182373046875,-9.180375099182129,-0.015980858355760574,0.7202504873275757,-0.025087624788284302,0,0
2020-06-15,17:55:33,22.9030465,120.2731228,7.676,29,-44,3,-62,-14,-981,-0.06916999816894531,0.0004444122314453125,-7.676036834716797,-0.02360406517982483,0.7176295518875122,-0.03197864443063736,0,0
2020-06-15,17:55:36,22.9030449,120.2731236,6.163,35,-2,18,-38,36,-977,-0.24905776977539062,0.092132568359375,-6.163026809692383,-0.03534470498561859,0.6999425888061523,-0.04466645047068596,0,0
2020-06-15,17:55:39,22.9030469,120.2731241,4.632,70,-38,-12,-34,-32,-1000,-0.029108047485351562,0.13343048095703125,-4.632352828979492,-0.0029150545597076416,0.7086895108222961,-0.03306794911623001,0,0
2020-06-15,17:55:42,22.9030462,120.2731234,3.177,-95,31,-8,11,107,-1002,-0.10257148742675781,0.06614112854003906,-3.177633285522461,-0.01530278380960226,0.7271333932876587,-0.03684448078274727,0,0
2020-06-15,17:55:45,22.9030464,120.2731234,1.551,-19,-34,9,9,62,-1005,-0.08897686004638672,0.06435394287109375,-1.5516053438186646,-0.016879454255104065,0.6971111297607422,-0.02941349893808365,0,0
2020-06-15,17:55:48,22.9030458,120.2731232,0.342,26,7,1,-33,-16,-1001,-0.15111351013183594,0.048175811767578125,-0.34217914938926697,-0.03831227496266365,0.7573285698890686,0.007857115939259529,0,0
